[
    {
      "Company": "Mindful Journey Resources",
      "Address": "10065 Old Hammond Hwy",
      "City": "Baton Rouge",
      "State": "LA",
      "zip": "70816",
      "Title": "",
      "Phone": "(225) 292-2237",
      "Website": "",
      "Location": "Private",
      "Business": "Single Loc"
    },
    {
      "Company": "Brown, Jessica L Phd",
      "Address": "10101 Park Rowe Ave # 200",
      "City": "Baton Rouge",
      "State": "LA",
      "zip": "70810",
      "Title": "PHD",
      "Phone": "(225) 769-2200",
      "Website": "",
      "Location": "Single Loc",
      "Business": "Private"
    },
    {
      "Company": "Burnett, Darla M",
      "Address": "10101 Park Rowe Ave # 200",
      "City": "Baton Rouge",
      "State": "LA",
      "zip": "70810",
      "Title": "",
      "Phone": "(225) 769-2200",
      "Website": "",
      "Location": "Single Loc",
      "Business": "Private"
    },
    {
      "Company": "Dammers, Paul M Phd",
      "Address": "10101 Park Rowe Ave # 200",
      "City": "Baton Rouge",
      "State": "LA",
      "zip": "70810",
      "Title": "PHD",
      "Phone": "(225) 769-2200",
      "Website": "",
      "Location": "Single Loc",
      "Business": "Private"
    },
    {
      "Company": "Cherish Behavioral Health Svc",
      "Address": "10200 Greenwell Springs Rd",
      "City": "Baton Rouge",
      "State": "LA",
      "zip": "70814",
      "Title": "",
      "Phone": "Not Available",
      "Website": "",
      "Location": "Single Loc",
      "Business": "Private"
    },
    {
      "Company": "Romano Brandon P Psy D & Assoc",
      "Address": "10211 Siegen Ln",
      "City": "Baton Rouge",
      "State": "LA",
      "zip": "70810",
      "Title": "",
      "Phone": "(225) 769-2533",
      "Website": "Romanopsych.Com",
      "Location": "Private",
      "Business": "Single Loc"
    },
    {
      "Company": "Behavioral Health Conslnts LLC",
      "Address": "10211 Siegen Ln # 2a",
      "City": "Baton Rouge",
      "State": "LA",
      "zip": "70810",
      "Title": "",
      "Phone": "Not Available",
      "Website": "",
      "Location": "Single Loc",
      "Business": "Private"
    },
    {
      "Company": "Lynn R Schechter Ph D LLC",
      "Address": "10211 Siegen Ln # 2a",
      "City": "Baton Rouge",
      "State": "LA",
      "zip": "70810",
      "Title": "PHD",
      "Phone": "(225) 769-2533",
      "Website": "Drlynnhelpskids.Vpweb.Com",
      "Location": "Private",
      "Business": "Single Loc"
    }
   ]
